{
  "waypoints": [
    {
      "name": "Augustów",
      "code": "",
      "country": "PL",
      "latitude": 53.844033333333336,
      "longitude": 22.980416666666667,
      "elevation": 124,
      "style": 1,
      "runway_direction": 0,
      "runway_length": 0,
      "runway_width": 0,
      "frequency": "",
      "description": ""
    },
    {
      "name": "Bielsk Podlaski",
      "code": "",
      "country": "PL",
      "latitude": 52.765233333333335,
      "longitude": 23.186733333333333,
      "elevation": 140,
      "style": 1,
      "runway_direction": 0,
      "runway_length": 0,
      "runway_width": 0,
      "frequency": "",
      "description": ""
    },
    {
      "name": "Brańsk",
      "code": "",
      "country": "PL",
      "latitude": 52.74326666666666,
      "longitude": 22.841416666666667,
      "elevation": 133,
      "style": 1,
      "runway_direction": 0,
      "runway_length": 0,
      "runway_width": 0,
      "frequency": "",
      "description": ""
    },
    {
      "name": "Czarna Białostocka",
      "code": "",
      "country": "PL",
      "latitude": 53.305683333333334,
      "longitude": 23.280416666666667,
      "elevation": 155,
      "style": 1,
      "runway_direction": 0,
      "runway_length": 0,
      "runway_width": 0,
      "frequency": "",
      "description": ""
    },
    {
      "name": "Czyżew",
      "code": "",
      "country": "PL",
      "latitude": 52.797583333333336,
      "longitude": 22.31235,
      "elevation": 120,
      "style": 1,
      "runway_direction": 0,
      "runway_length": 0,
      "runway_width": 0,
      "frequency": "",
      "description": ""
    },
    {
      "name": "Ełk",
      "code": "",
      "country": "PL",
      "latitude": 53.828066666666665,
      "longitude": 22.3647,
      "elevation": 127,
      "style": 1,
      "runway_direction": 0,
      "runway_length": 0,
      "runway_width": 0,
      "frequency": "",
      "description": ""
    },
    {
      "name": "Goniądz",
      "code": "",
      "country": "PL",
      "latitude": 53.48975,
      "longitude": 22.735133333333334,
      "elevation": 129,
      "style": 1,
      "runway_direction": 0,
      "runway_length": 0,
      "runway_width": 0,
      "frequency": "",
      "description": ""
    },
    {
      "name": "Gródek",
      "code": "",
      "country": "PL",
      "latitude": 53.09556666666667,
      "longitude": 23.659483333333334,
      "elevation": 143,
      "style": 1,
      "runway_direction": 0,
      "runway_length": 0,
      "runway_width": 0,
      "frequency": "",
      "description": ""
    },
    {
      "name": "Hajnówka",
      "code": "",
      "country": "PL",
      "latitude": 52.73925,
      "longitude": 23.581633333333333,
      "elevation": 164,
      "style": 1,
      "runway_direction": 0,
      "runway_length": 0,
      "runway_width": 0,
      "frequency": "",
      "description": ""
    },
    {
      "name": "Jeżewo Stare",
      "code": "",
      "country": "PL",
      "latitude": 53.137683333333335,
      "longitude": 22.7413,
      "elevation": 125,
      "style": 1,
      "runway_direction": 0,
      "runway_length": 0,
      "runway_width": 0,
      "frequency": "",
      "description": ""
    },
    {
      "name": "Knyszyn",
      "code": "",
      "country": "PL",
      "latitude": 53.312133333333335,
      "longitude": 22.91865,
      "elevation": 127,
      "style": 1,
      "runway_direction": 0,
      "runway_length": 0,
      "runway_width": 0,
      "frequency": "",
      "description": ""
    },
    {
      "name": "Korycin",
      "code": "",
      "country": "PL",
      "latitude": 53.4451,
      "longitude": 23.090783333333334,
      "elevation": 134,
      "style": 1,
      "runway_direction": 0,
      "runway_length": 0,
      "runway_width": 0,
      "frequency": "",
      "description": ""
    },
    {
      "name": "Królowy Most",
      "code": "",
      "country": "PL",
      "latitude": 53.1407,
      "longitude": 23.473166666666668,
      "elevation": 139,
      "style": 1,
      "runway_direction": 0,
      "runway_length": 0,
      "runway_width": 0,
      "frequency": "",
      "description": ""
    },
    {
      "name": "Lelis",
      "code": "",
      "country": "PL",
      "latitude": 53.177816666666665,
      "longitude": 21.556583333333332,
      "elevation": 104,
      "style": 1,
      "runway_direction": 0,
      "runway_length": 0,
      "runway_width": 0,
      "frequency": "",
      "description": ""
    },
    {
      "name": "Michałowo",
      "code": "",
      "country": "PL",
      "latitude": 53.03281666666667,
      "longitude": 23.60635,
      "elevation": 153,
      "style": 1,
      "runway_direction": 0,
      "runway_length": 0,
      "runway_width": 0,
      "frequency": "",
      "description": ""
    },
    {
      "name": "Mońki",
      "code": "",
      "country": "PL",
      "latitude": 53.404466666666664,
      "longitude": 22.7972,
      "elevation": 172,
      "style": 1,
      "runway_direction": 0,
      "runway_length": 0,
      "runway_width": 0,
      "frequency": "",
      "description": ""
    },
    {
      "name": "Narew",
      "code": "",
      "country": "PL",
      "latitude": 52.912866666666666,
      "longitude": 23.5193,
      "elevation": 139,
      "style": 1,
      "runway_direction": 0,
      "runway_length": 0,
      "runway_width": 0,
      "frequency": "",
      "description": ""
    },
    {
      "name": "Ostrołęka",
      "code": "",
      "country": "PL",
      "latitude": 53.087466666666664,
      "longitude": 21.55913333333333,
      "elevation": 99,
      "style": 1,
      "runway_direction": 0,
      "runway_length": 0,
      "runway_width": 0,
      "frequency": "",
      "description": ""
    },
    {
      "name": "Rafałówka",
      "code": "",
      "country": "PL",
      "latitude": 53.05583333333333,
      "longitude": 23.338683333333332,
      "elevation": 168,
      "style": 1,
      "runway_direction": 0,
      "runway_length": 0,
      "runway_width": 0,
      "frequency": "",
      "description": ""
    },
    {
      "name": "Rutki-Kossaki",
      "code": "",
      "country": "PL",
      "latitude": 53.091516666666664,
      "longitude": 22.435166666666667,
      "elevation": 133,
      "style": 1,
      "runway_direction": 0,
      "runway_length": 0,
      "runway_width": 0,
      "frequency": "",
      "description": ""
    },
    {
      "name": "Siemianówka",
      "code": "",
      "country": "PL",
      "latitude": 52.89918333333333,
      "longitude": 23.839116666666666,
      "elevation": 145,
      "style": 1,
      "runway_direction": 0,
      "runway_length": 0,
      "runway_width": 0,
      "frequency": "",
      "description": ""
    },
    {
      "name": "Siemiatycze",
      "code": "",
      "country": "PL",
      "latitude": 52.427883333333334,
      "longitude": 22.862766666666666,
      "elevation": 145,
      "style": 1,
      "runway_direction": 0,
      "runway_length": 0,
      "runway_width": 0,
      "frequency": "",
      "description": ""
    },
    {
      "name": "Sokółka",
      "code": "",
      "country": "PL",
      "latitude": 53.404,
      "longitude": 23.507983333333332,
      "elevation": 158,
      "style": 1,
      "runway_direction": 0,
      "runway_length": 0,
      "runway_width": 0,
      "frequency": "",
      "description": ""
    },
    {
      "name": "Suchowola",
      "code": "",
      "country": "PL",
      "latitude": 53.57765,
      "longitude": 23.105866666666667,
      "elevation": 142,
      "style": 1,
      "runway_direction": 0,
      "runway_length": 0,
      "runway_width": 0,
      "frequency": "",
      "description": ""
    },
    {
      "name": "Supraśl",
      "code": "",
      "country": "PL",
      "latitude": 53.21008333333333,
      "longitude": 23.3358,
      "elevation": 130,
      "style": 1,
      "runway_direction": 0,
      "runway_length": 0,
      "runway_width": 0,
      "frequency": "",
      "description": ""
    },
    {
      "name": "Szepietowo",
      "code": "",
      "country": "PL",
      "latitude": 52.87005,
      "longitude": 22.54146666666667,
      "elevation": 147,
      "style": 1,
      "runway_direction": 0,
      "runway_length": 0,
      "runway_width": 0,
      "frequency": "",
      "description": ""
    },
    {
      "name": "Tykocin",
      "code": "",
      "country": "PL",
      "latitude": 53.20643333333334,
      "longitude": 22.773883333333334,
      "elevation": 112,
      "style": 1,
      "runway_direction": 0,
      "runway_length": 0,
      "runway_width": 0,
      "frequency": "",
      "description": ""
    },
    {
      "name": "Wizna",
      "code": "",
      "country": "PL",
      "latitude": 53.19385,
      "longitude": 22.381766666666667,
      "elevation": 119,
      "style": 1,
      "runway_direction": 0,
      "runway_length": 0,
      "runway_width": 0,
      "frequency": "",
      "description": ""
    },
    {
      "name": "Wysokie Mazowieckie",
      "code": "",
      "country": "PL",
      "latitude": 52.91558333333333,
      "longitude": 22.509433333333334,
      "elevation": 142,
      "style": 1,
      "runway_direction": 0,
      "runway_length": 0,
      "runway_width": 0,
      "frequency": "",
      "description": ""
    },
    {
      "name": "Zabłudów",
      "code": "",
      "country": "PL",
      "latitude": 53.0142,
      "longitude": 23.338366666666666,
      "elevation": 154,
      "style": 1,
      "runway_direction": 0,
      "runway_length": 0,
      "runway_width": 0,
      "frequency": "",
      "description": ""
    },
    {
      "name": "Zambrów",
      "code": "",
      "country": "PL",
      "latitude": 52.98546666666667,
      "longitude": 22.244133333333334,
      "elevation": 126,
      "style": 1,
      "runway_direction": 0,
      "runway_length": 0,
      "runway_width": 0,
      "frequency": "",
      "description": ""
    },
    {
      "name": "Łapy",
      "code": "",
      "country": "PL",
      "latitude": 52.99046666666667,
      "longitude": 22.88365,
      "elevation": 120,
      "style": 1,
      "runway_direction": 0,
      "runway_length": 0,
      "runway_width": 0,
      "frequency": "",
      "description": ""
    },
    {
      "name": "Łomża",
      "code": "",
      "country": "PL",
      "latitude": 53.180733333333336,
      "longitude": 22.076733333333333,
      "elevation": 123,
      "style": 1,
      "runway_direction": 0,
      "runway_length": 0,
      "runway_width": 0,
      "frequency": "",
      "description": ""
    },
    {
      "name": "BIAŁYSTOK KRYWLANY",
      "code": "EPBK",
      "country": "PL",
      "latitude": 53.100966666666665,
      "longitude": 23.17195,
      "elevation": 149,
      "style": 5,
      "runway_direction": 267,
      "runway_length": 1350,
      "runway_width": 30,
      "frequency": "123.205",
      "description": ""
    }
  ],
  "current_filename": "waypoints_epbk.cup"
}